City,Cloudiness,Country,Date,Humidity,Lat,Lng,Max Temp,Wind Speed
kodiak,1,US,1573346370,47,39.95,-94.76,55.99,8.05
xiuyan,96,CN,1573346659,66,40.29,123.27,43.83,7.05
saint-philippe,75,CA,1573346626,47,45.36,-73.48,36.0,11.41
port blair,50,IN,1573346467,74,11.67,92.75,81.48,3.94
port alfred,96,ZA,1573346659,88,-33.59,26.89,64.99,8.01
sabha,100,LY,1573346659,36,27.03,14.43,73.58,5.59
corigliano calabro,55,IT,1573346659,90,39.6,16.52,55.0,14.79
geraldton,90,CA,1573346659,92,49.72,-86.95,17.6,3.36
yellowknife,75,CA,1573346660,64,62.45,-114.38,-0.41,9.17
ahipara,100,NZ,1573346660,100,-35.17,173.16,72.0,5.99
shache,0,CN,1573346660,38,38.42,77.24,40.44,5.12
khatanga,100,RU,1573346654,96,71.98,102.47,-1.72,15.9
oksfjord,0,NO,1573346660,92,70.24,22.35,17.6,9.17
rundu,100,NA,1573346660,53,-17.91,19.77,75.2,8.05
mataura,100,NZ,1573346660,94,-46.19,168.86,50.0,4.0
walvis bay,0,NA,1573346661,87,-22.95,14.51,57.99,3.36
dhidhdhoo,1,MV,1573346661,66,6.88,73.1,81.81,4.16
lesnoye,76,RU,1573346661,95,51.57,42.77,37.0,5.99
takoradi,37,GH,1573346661,83,4.89,-1.75,79.99,6.2
jamestown,0,AU,1573346661,31,-33.21,138.6,65.59,3.96
puerto ayora,75,EC,1573346389,64,-0.74,-90.35,75.2,14.99
praya,75,ID,1573346574,74,-8.71,116.27,84.2,1.12
inhambane,93,MZ,1573346627,80,-23.87,35.38,74.08,11.72
natal,20,BR,1573346660,78,-5.81,-35.21,78.8,10.29
vaini,75,IN,1573346366,100,15.34,74.49,64.4,2.8
liverpool,75,GB,1573346662,93,53.41,-2.98,42.01,13.87
kapaa,40,US,1573346419,69,22.08,-159.32,80.6,8.05
jalu,76,LY,1573346662,25,29.03,21.55,73.44,10.71
atuona,3,PF,1573346386,76,-9.8,-139.03,80.04,12.1
henties bay,0,NA,1573346663,91,-22.12,14.28,57.99,4.0
arraial do cabo,100,BR,1573346663,91,-22.97,-42.02,74.3,12.06
bambous virieux,20,MU,1573346372,88,-20.34,57.76,70.0,4.7
matara,52,BI,1573346663,87,-3.48,29.48,58.82,4.5
mount isa,46,AU,1573346375,11,-20.73,139.49,82.4,13.87
punta arenas,0,CL,1573346418,65,-53.16,-70.91,46.4,6.93
qaanaaq,0,GL,1573346387,42,77.48,-69.36,-5.27,5.1
lompoc,1,US,1573346663,77,34.64,-120.46,73.99,12.75
narsaq,100,GL,1573346664,23,60.91,-46.05,48.2,41.38
souillac,38,FR,1573346664,93,45.6,-0.6,42.8,5.82
ossora,21,RU,1573346664,73,59.24,163.07,34.45,8.25
atambua,70,ID,1573346664,61,-9.11,124.89,83.32,2.55
nikolskoye,90,RU,1573346664,93,59.7,30.79,39.2,4.47
kulu,55,CD,1573346664,98,3.47,23.69,69.73,0.69
rikitea,100,PF,1573346664,75,-23.12,-134.97,73.26,9.33
cherskiy,0,RU,1573346379,87,68.75,161.3,-0.91,1.63
hobart,20,AU,1573346665,31,-42.88,147.33,63.0,18.34
burns lake,100,CA,1573346665,88,54.23,-125.76,26.38,6.31
zeya,90,RU,1573346665,90,53.74,127.27,4.8,6.51
ushuaia,40,AR,1573346431,52,-54.81,-68.31,44.6,6.93
cape town,0,ZA,1573346401,72,-33.93,18.42,64.99,5.82
hilo,1,US,1573346622,58,19.71,-155.08,87.8,11.41
ancud,100,CL,1573346442,93,-41.87,-73.83,51.8,5.82
bredasdorp,100,ZA,1573346632,82,-34.53,20.04,64.0,12.75
quatre cocos,20,MU,1573346409,88,-20.21,57.76,70.0,4.7
xiaoweizhai,100,CN,1573346666,82,26.23,107.51,53.37,3.13
oranjemund,31,ZA,1573346666,93,-28.55,16.43,58.55,3.71
vila velha,20,BR,1573346424,78,-3.71,-38.6,86.0,12.75
pontianak,20,ID,1573346666,88,-0.02,109.34,75.2,1.7
mangan,100,IN,1573346666,43,27.5,88.54,48.56,4.41
mar del plata,23,AR,1573346667,66,-46.43,-67.52,47.95,15.82
lufkin,1,US,1573346648,71,31.34,-94.73,53.6,1.77
khorol,21,UA,1573346667,92,49.78,33.27,50.07,10.07
barrow,16,AR,1573346422,64,-38.31,-60.23,50.18,8.95
ponta do sol,90,BR,1573346667,89,-20.63,-46.0,69.53,5.32
hermanus,76,ZA,1573346418,84,-34.42,19.24,64.0,11.99
price,1,US,1573346668,15,39.6,-110.81,59.0,1.81
datong,27,CN,1573346668,53,40.09,113.3,34.59,6.31
tambacounda,16,SN,1573346668,18,13.77,-13.67,84.69,4.83
klaksvik,100,FO,1573346443,60,62.23,-6.59,35.6,4.7
port moresby,40,PG,1573346668,78,-9.47,147.16,82.4,11.41
tessalit,100,ML,1573346668,24,20.2,1.01,78.39,4.65
acajutla,1,SV,1573346387,70,13.59,-89.83,84.92,9.82
iqaluit,40,CA,1573346669,84,63.75,-68.52,5.0,13.87
coquimbo,58,CL,1573346387,82,-29.95,-71.34,57.2,8.05
kaitangata,100,NZ,1573346393,88,-46.28,169.85,51.01,11.01
bathsheba,75,BB,1573346663,83,13.22,-59.52,80.6,21.92
thompson,40,CA,1573346669,84,55.74,-97.86,-0.41,2.24
poum,69,MK,1573346669,97,41.28,20.71,47.1,3.76
huescar,99,ES,1573346670,80,37.81,-2.54,54.0,5.01
majene,87,ID,1573346664,66,-3.54,118.97,82.85,2.39
karpathos,20,GR,1573346670,75,35.51,27.21,71.04,12.21
todos santos,100,MX,1573346407,75,23.45,-110.23,86.0,3.0
severo-kurilsk,85,RU,1573346670,88,50.68,156.12,31.71,27.07
goderich,97,CA,1573346467,79,43.74,-81.71,39.0,11.01
mishelevka,99,RU,1573346671,73,52.86,103.17,18.1,9.51
marawi,0,PH,1573346398,76,8.0,124.29,82.99,5.01
hamilton,75,CA,1573346638,64,43.26,-79.87,41.0,12.75
karasburg,0,NA,1573346671,28,-28.01,18.75,59.83,12.01
biak,100,ID,1573346519,73,-0.91,122.88,80.89,8.1
plettenberg bay,91,ZA,1573346656,81,-34.05,23.37,61.38,9.53
iraan,1,US,1573346671,63,30.91,-101.9,64.0,5.82
mataram,57,ID,1573346671,83,-5.32,105.06,74.01,5.82
cidreira,100,BR,1573346430,87,-30.17,-50.22,71.02,22.44
east london,99,ZA,1573346672,83,-33.02,27.91,64.71,13.56
ternovka,100,RU,1573346672,70,51.69,41.59,42.42,10.85
faanui,84,PF,1573346436,80,-16.48,-151.75,80.92,14.05
chuy,100,UY,1573346672,85,-33.69,-53.46,64.56,10.63
kandrian,100,PG,1573346673,93,-6.21,149.55,74.86,3.0
maxixe,93,MZ,1573346673,80,-23.86,35.35,74.08,11.72
carnarvon,100,ZA,1573346673,34,-30.97,22.13,62.74,3.71
sorong,78,ID,1573346392,76,-0.86,131.25,82.4,2.68
mackay,90,CA,1573346673,92,53.65,-115.58,14.0,3.36
arlit,20,NE,1573346673,11,18.74,7.39,83.16,7.7
aitape,100,PG,1573346674,75,-3.15,142.36,81.82,4.56
caucaia,20,BR,1573346674,78,-3.73,-38.66,86.0,12.75
albany,20,US,1573346480,34,42.65,-73.75,35.6,12.75
busselton,51,AU,1573346674,79,-33.64,115.35,69.01,7.0
arona,0,IT,1573346674,100,45.76,8.56,48.0,5.82
muros,40,ES,1573346472,93,42.77,-9.06,57.0,6.49
luba,75,PH,1573346675,85,17.32,120.7,76.89,2.57
kuruman,40,ZA,1573346675,32,-27.46,23.43,66.72,8.79
isangel,20,VU,1573346474,58,-19.55,169.27,84.2,6.93
bluff,4,AU,1573346676,12,-23.58,149.07,78.62,6.73
maceio,18,BR,1573346659,88,-9.67,-35.74,75.2,4.7
charters towers,2,AU,1573346676,18,-20.07,146.27,87.87,11.41
qixingtai,39,CN,1573346676,78,30.41,111.89,63.0,4.36
ketchikan,90,US,1573346658,93,55.34,-131.65,51.8,23.04
dingle,4,PH,1573346421,76,11.0,122.67,79.95,0.4
hof,0,DE,1573346676,86,50.32,11.92,35.01,5.32
vanavara,100,RU,1573346676,89,60.35,102.28,-6.74,10.47
tura,100,RU,1573346677,97,64.27,100.22,-10.77,4.27
upernavik,29,GL,1573346420,76,72.79,-56.15,13.12,9.62
sao filipe,96,CV,1573346677,82,14.9,-24.5,74.35,17.67
havre-saint-pierre,90,CA,1573346421,73,50.23,-63.6,23.0,12.75
urazovo,36,RU,1573346677,94,50.09,38.04,43.12,7.38
lorengau,100,PG,1573346438,78,-2.02,147.27,82.58,18.9
padang,71,ID,1573346678,88,-0.92,100.36,69.4,1.25
torbay,20,CA,1573346412,63,47.66,-52.73,35.01,19.46
naze,75,NG,1573346678,94,5.43,7.07,75.2,2.3
bonavista,45,CA,1573346671,72,48.65,-53.11,33.01,15.99
tuktoyaktuk,20,CA,1573346678,71,69.44,-133.03,5.0,18.34
wagar,0,US,1573346678,88,31.44,-87.99,53.01,3.89
grenfell,8,AU,1573346678,46,-33.9,148.16,62.78,11.92
dikson,100,RU,1573346391,94,73.51,80.55,10.47,14.72
sangar,100,RU,1573346679,77,63.92,127.47,-4.37,10.2
skibbereen,20,IE,1573346679,81,51.55,-9.27,42.8,13.87
tasiilaq,93,GL,1573346679,74,65.61,-37.64,33.8,44.96
jacareacanga,100,BR,1573346491,96,-6.22,-57.76,73.53,2.73
mercedes,27,UY,1573346679,75,-33.25,-58.03,71.01,14.0
palu,100,ID,1573346679,88,-0.9,119.87,72.63,1.05
nicoya,75,CR,1573346679,74,10.15,-85.45,80.6,16.11
saldanha,100,PT,1573346680,87,41.42,-6.55,42.1,10.87
alofi,3,NU,1573346680,65,-19.06,-169.92,82.4,16.11
west plains,1,US,1573346680,58,36.73,-91.85,57.2,4.7
lincoln,100,GB,1573346454,81,53.23,-0.54,44.6,13.87
sfantu gheorghe,51,RO,1573346680,100,44.65,26.83,60.01,4.7
hispania,75,CO,1573346680,93,5.8,-75.91,60.8,2.24
pisco,40,PE,1573346458,77,-13.71,-76.2,66.2,14.99
emerald,22,AU,1573346680,10,-23.53,148.16,80.6,12.75
umm lajj,0,SA,1573346681,50,25.02,37.27,77.99,6.67
fort nelson,90,CA,1573346681,60,58.81,-122.69,8.6,5.82
zermatt,89,CH,1573346681,74,46.02,7.75,42.01,4.7
port hedland,26,AU,1573346681,12,-20.31,118.58,98.6,10.29
tooele,1,US,1573346682,46,40.53,-112.3,55.4,5.82
avarua,35,CK,1573346682,74,-21.21,-159.78,78.8,9.17
evensk,100,RU,1573346682,84,61.92,159.24,23.52,33.38
chokurdakh,100,RU,1573346682,96,70.62,147.9,-4.46,6.2
bethel,40,US,1573346438,92,60.79,-161.76,30.2,13.87
coolum beach,0,AU,1573346682,21,-26.53,153.09,84.0,1.99
san andres,16,PH,1573346645,83,13.32,122.68,79.65,3.49
sengiley,90,RU,1573346682,92,53.96,48.79,28.4,6.71
rincon,75,PA,1573346683,94,8.46,-82.28,80.6,3.36
vostok,0,RU,1573346683,63,46.45,135.83,21.0,5.14
petropavlovsk-kamchatskiy,75,RU,1573346683,69,53.05,158.65,39.2,4.47
wajid,100,SO,1573346683,90,3.81,43.25,73.29,5.79
new norfolk,20,AU,1573346683,31,-42.78,147.06,63.0,18.34
atbasar,41,KZ,1573346683,85,51.81,68.36,11.53,11.5
ngunguru,93,NZ,1573346684,87,-35.62,174.5,69.01,15.99
dolinsk,40,RU,1573346684,70,47.32,142.8,32.0,2.24
tongchuan,0,CN,1573346684,93,34.9,108.95,42.8,6.71
laguna,75,BZ,1573346462,78,16.17,-88.94,82.4,4.7
praia,75,BR,1573346684,64,-20.25,-43.81,75.2,11.41
aguimes,75,ES,1573346684,60,27.91,-15.45,68.0,31.09
krasne,90,UA,1573346685,100,49.91,24.61,48.2,6.71
katsuura,40,JP,1573346685,54,33.93,134.5,59.0,13.87
hithadhoo,57,MV,1573346685,78,-0.6,73.08,80.96,8.5
iskitim,40,RU,1573346685,84,54.64,83.3,3.2,4.47
togul,100,RU,1573346685,68,53.47,85.91,21.76,6.62
launceston,90,AU,1573346432,44,-41.43,147.14,61.0,17.22
pacific grove,40,US,1573346494,77,36.62,-121.92,73.4,4.7
talnakh,98,RU,1573346449,75,69.49,88.39,-16.61,11.18
saint-augustin,90,CA,1573346679,64,45.63,-73.98,36.0,9.17
pampa,1,US,1573346686,46,35.54,-100.96,69.8,9.17
ostersund,100,SE,1573346686,85,63.18,14.64,16.0,9.17
pedasi,100,PA,1573346686,87,7.53,-80.03,79.75,10.78
de aar,98,ZA,1573346686,44,-30.65,24.01,62.94,16.8
murray bridge,38,AU,1573346686,54,-35.12,139.28,64.99,1.01
ornskoldsvik,100,SE,1573346686,78,63.29,18.72,23.0,12.75
port elizabeth,1,US,1573346687,63,39.31,-74.98,37.4,3.31
broken hill,0,AU,1573346687,44,-31.97,141.45,60.8,8.05
seoul,40,KR,1573346445,70,37.57,126.98,51.8,2.24
severnoye,100,RU,1573346687,82,54.09,52.54,27.93,3.31
lais,98,ID,1573346687,71,0.79,120.42,81.36,3.15
saint-pierre,67,FR,1573346687,93,48.95,4.24,39.99,12.75
hami,0,CN,1573346687,36,42.84,93.51,30.76,0.38
hambantota,40,LK,1573346632,100,6.12,81.12,73.4,1.12
yeniseysk,78,RU,1573346637,95,58.45,92.17,-6.43,5.59
salalah,40,OM,1573346391,74,17.01,54.1,78.8,2.24
mwinilunga,100,ZM,1573346688,88,-11.73,24.43,63.32,1.9
panambi,54,BR,1573346688,88,-28.29,-53.5,71.49,6.87
labuhan,99,ID,1573346688,83,-2.54,115.51,79.02,1.14
cabedelo,20,BR,1573346688,83,-6.97,-34.84,77.0,8.05
loei,64,TH,1573346689,100,17.49,101.72,60.8,2.24
ishigaki,75,JP,1573346689,68,24.34,124.16,71.6,5.82
totness,1,US,1573346689,86,33.74,-80.8,42.8,3.36
nuuk,100,GL,1573346689,49,64.17,-51.74,38.68,21.0
vardo,1,US,1573346459,51,39.62,-77.74,37.99,4.7
kudat,75,MY,1573346689,69,6.89,116.84,82.4,4.7
rio gallegos,0,AR,1573346689,52,-51.62,-69.22,42.8,23.04
ust-kan,100,RU,1573346690,94,50.93,84.77,22.78,2.84
aswan,0,EG,1573346394,35,24.09,32.9,73.4,3.36
beringovskiy,100,RU,1573346690,96,63.05,179.32,27.82,14.83
mogadishu,62,SO,1573346690,71,2.04,45.34,81.88,7.07
castro,100,CL,1573346395,93,-42.48,-73.76,51.8,5.82
sitka,0,US,1573346391,28,37.17,-99.65,57.0,1.99
manokwari,88,ID,1573346691,72,-0.87,134.08,79.7,4.59
banfora,0,BF,1573346691,58,10.64,-4.75,78.76,1.54
mugur-aksy,100,RU,1573346691,85,50.38,90.44,10.47,3.58
guarapari,40,BR,1573346691,78,-20.67,-40.5,78.8,11.41
hoquiam,90,US,1573346691,100,46.98,-123.89,52.0,3.36
kimberley,57,ZA,1573346691,44,-28.74,24.76,77.0,13.87
butaritari,77,KI,1573346624,63,3.07,172.79,84.25,1.5
kormilovka,0,RU,1573346691,84,55.0,74.1,6.8,4.47
ballina,8,IE,1573346692,88,54.11,-9.15,44.01,2.33
nago,0,IT,1573346445,93,45.88,10.89,46.99,4.7
victoria,75,BN,1573346437,83,5.28,115.24,78.8,3.36
touros,40,BR,1573346619,78,-5.2,-35.46,77.0,5.82
hamza,0,UZ,1573346692,74,40.42,71.51,35.6,2.24
makakilo city,1,US,1573346692,51,21.35,-158.09,84.2,6.93
mayskiy,90,RU,1573346692,93,43.63,44.06,44.6,0.96
cayenne,20,GF,1573346419,88,4.94,-52.33,80.6,5.82
kruisfontein,94,ZA,1573346476,82,-34.0,24.73,60.71,13.35
diffa,65,NE,1573346481,16,13.32,12.61,83.25,7.81
guamuchil,100,MX,1573346693,58,25.47,-108.1,86.0,5.99
lagoa,42,PT,1573346693,77,37.14,-8.45,59.0,6.93
dong hoi,65,VN,1573346465,92,17.48,106.6,63.52,5.75
gusau,3,NG,1573346693,26,12.17,6.66,78.35,6.2
catuday,100,PH,1573346693,74,16.29,119.81,81.32,4.7
beloha,86,MG,1573346693,84,-25.17,45.06,70.48,8.86
luderitz,0,NA,1573346427,87,-26.65,15.16,60.8,4.7
verkhoyansk,9,RU,1573346694,95,67.55,133.39,-23.72,1.1
muisne,85,EC,1573346694,88,0.61,-80.02,74.57,8.66
port lincoln,0,AU,1573346414,54,-34.72,135.86,61.43,6.42
aviemore,26,GB,1573346694,93,57.19,-3.83,41.0,2.24
mapiripan,63,CO,1573346694,83,2.89,-72.13,77.07,2.15
codrington,90,AU,1573346694,19,-28.95,153.24,75.99,6.93
guerrero negro,100,MX,1573346695,49,27.97,-114.04,75.02,11.81
fortuna,40,US,1573346429,93,40.6,-124.16,57.99,6.93
ostrovnoy,100,RU,1573346695,95,68.05,39.51,17.46,3.76
kolokani,57,ML,1573346695,29,13.58,-8.03,82.69,3.98
dwarka,0,IN,1573346695,63,28.58,77.04,77.0,4.36
noyabrsk,100,RU,1573346695,96,63.2,75.45,4.1,6.76
kamenka,35,MD,1573346695,90,48.03,28.7,57.0,8.99
leningradskiy,0,RU,1573346427,60,69.38,178.42,19.09,7.31
veshenskaya,0,RU,1573346696,90,49.63,41.73,40.77,8.81
colac,100,AU,1573346680,88,-38.34,143.59,61.0,1.99
lebu,90,ET,1573346696,61,8.96,38.73,52.02,0.81
saskylakh,100,RU,1573346696,97,71.97,114.09,0.43,5.48
karasjok,0,NO,1573346696,77,69.47,25.52,1.4,3.36
verkh-usugli,100,RU,1573346696,81,52.7,115.17,26.73,5.77
champasak,75,LA,1573346696,82,14.89,105.88,68.0,2.24
oxbow,90,CA,1573346697,79,49.23,-102.17,23.0,19.46
bowen,40,AU,1573346697,26,-20.01,148.25,88.0,19.46
suleja,100,NG,1573346697,78,9.18,7.18,75.2,3.36
dali,0,CN,1573346697,51,34.79,109.94,48.45,7.76
arman,100,RU,1573346697,84,59.7,150.17,21.18,16.46
monte santo,78,BR,1573346697,63,-10.44,-39.33,76.37,13.91
sao jose da coroa grande,98,BR,1573346698,79,-8.9,-35.15,79.29,12.28
norman wells,20,CA,1573346698,84,65.28,-126.83,-0.41,2.24
hirara,40,JP,1573346641,60,24.8,125.28,73.4,4.7
semey,90,KZ,1573346698,92,50.41,80.25,30.2,8.95
carutapera,100,BR,1573346698,78,-1.2,-46.02,81.95,13.56
irtyshskiy,47,RU,1573346698,89,58.33,68.13,11.68,4.09
barkhan,0,PK,1573346698,46,29.9,69.52,50.23,2.53
outjo,100,NA,1573346699,28,-20.11,16.16,71.6,11.03
provideniya,100,RU,1573346699,99,64.42,-173.23,34.61,2.44
maniitsoq,58,GL,1573346699,46,65.42,-52.9,35.56,21.77
asyut,0,EG,1573346699,48,27.18,31.19,63.9,12.53
roma,95,IT,1573346624,93,41.89,12.48,52.0,1.12
longyearbyen,40,NO,1573346699,79,78.22,15.63,24.8,12.75
airai,34,TL,1573346699,31,-8.93,125.41,81.34,6.93
nanortalik,100,GL,1573346699,77,60.14,-45.24,36.55,57.69
mehriz,35,IR,1573346700,45,31.58,54.44,44.6,2.82
ilulissat,100,GL,1573346433,29,69.22,-51.1,35.6,26.4
kokkola,90,FI,1573346700,92,63.84,23.13,28.99,10.29
luganville,40,VU,1573346700,70,-15.51,167.18,84.2,6.93
mahebourg,20,MU,1573346700,88,-20.41,57.7,70.0,4.7
tazovskiy,37,RU,1573346522,97,67.47,78.7,-8.7,8.95
luang prabang,75,LA,1573346700,100,19.89,102.14,64.4,2.24
hasaki,20,JP,1573346419,67,35.73,140.83,59.0,6.93
palkino,99,RU,1573346701,100,57.54,28.01,48.2,6.71
gopalpur,100,BD,1573346701,92,24.18,89.13,72.12,17.09
tual,100,ID,1573346465,75,-5.67,132.75,82.24,3.49
lavrentiya,100,RU,1573346701,97,65.58,-170.99,34.5,6.06
bosaso,0,SO,1573346457,71,11.28,49.18,81.01,14.18
paso de los toros,51,UY,1573346701,92,-32.81,-56.52,63.66,12.64
lubao,85,CD,1573346701,91,-5.39,25.75,69.91,1.97
port hardy,90,CA,1573346463,93,50.7,-127.42,50.0,1.5
zyryanka,100,RU,1573346702,93,65.73,150.89,-1.36,20.24
shu,100,KZ,1573346702,56,43.6,73.76,34.0,8.01
acapulco,5,MX,1573346702,83,16.86,-99.88,84.2,6.93
pitimbu,20,BR,1573346702,83,-7.47,-34.81,77.0,8.05
hofn,100,IS,1573346703,76,64.25,-15.21,45.7,27.58
pangoa,100,PE,1573346703,85,-12.12,-73.0,74.25,3.38
bayshore gardens,40,US,1573346703,73,27.43,-82.59,72.0,8.05
la ronge,75,CA,1573346446,66,55.1,-105.3,10.4,10.29
san vicente,75,EC,1573346703,83,-0.59,-80.41,73.4,10.29
nichinan,20,JP,1573346703,76,31.65,131.31,57.2,6.93
shimoda,20,JP,1573346703,59,34.7,138.93,62.6,16.11
kirkwood,75,ZA,1573346704,77,-33.4,25.44,66.2,18.34
kalmunai,97,LK,1573346704,82,7.42,81.82,79.29,7.27
rio grande,64,BR,1573346704,90,-32.03,-52.1,71.01,3.0
tahlequah,0,US,1573346704,71,35.92,-94.97,55.4,6.38
kuching,75,MY,1573346704,94,1.56,110.34,77.0,2.24
bereda,40,ES,1573346704,62,43.27,-7.54,55.0,11.41
kampot,20,KH,1573346704,83,10.62,104.18,77.0,2.24
meulaboh,78,ID,1573346705,77,4.14,96.13,81.0,6.24
boende,0,CD,1573346705,90,-0.28,20.88,70.77,2.21
aquiraz,20,BR,1573346705,78,-3.9,-38.39,86.0,12.75
etchoropo,100,MX,1573346705,58,26.77,-109.67,84.99,5.01
san quintin,77,PH,1573346705,83,17.54,120.52,76.93,3.76
georgetown,40,GY,1573346670,83,6.8,-58.16,82.4,9.17
verkhnetulomskiy,40,RU,1573346705,68,68.61,31.8,-14.81,1.54
bakchar,0,RU,1573346706,74,57.02,82.07,10.33,3.58
leo,0,BF,1573346706,39,11.1,-2.1,80.31,4.76
alta floresta,100,BR,1573346706,97,-9.87,-56.08,71.87,6.82
comodoro rivadavia,19,AR,1573346460,70,-45.87,-67.48,48.2,10.29
tsabong,35,BW,1573346706,13,-26.02,22.4,72.37,13.51
coari,86,BR,1573346706,66,-4.09,-63.14,81.39,3.44
akureyri,100,IS,1573346707,86,65.68,-18.09,30.2,19.46
ribeira grande,2,PT,1573346707,77,38.52,-28.7,61.92,6.49
sawakin,0,SD,1573346707,67,19.1,37.33,85.32,5.48
tevaitoa,100,PF,1573346707,81,-16.78,-151.5,80.38,19.1
povenets,100,RU,1573346707,98,62.85,34.83,34.32,5.03
montepuez,38,MZ,1573346707,84,-13.13,39.0,73.13,5.03
lugovskoy,20,RU,1573346707,85,56.96,64.53,12.2,11.18
kungurtug,99,RU,1573346453,81,50.6,97.53,17.29,1.28
pangnirtung,100,CA,1573346708,68,66.15,-65.72,20.75,6.93
esperance,78,AU,1573346708,42,-33.86,121.89,87.8,20.8
marsa matruh,50,EG,1573346487,64,31.35,27.25,75.11,9.69
sioux lookout,75,CA,1573346708,73,50.1,-91.92,23.0,8.05
polunochnoye,12,RU,1573346483,84,60.87,60.43,4.53,2.28
opuwo,100,NA,1573346708,62,-18.06,13.84,69.8,0.69
haines junction,0,CA,1573346709,93,60.75,-137.51,1.29,6.33
lafayette,1,US,1573346709,50,30.22,-92.02,53.6,3.36
grindavik,75,IS,1573346501,86,63.84,-22.43,41.0,8.05
ocampo,93,MX,1573346709,76,27.32,-102.4,61.07,6.73
sistranda,20,NO,1573346709,85,63.73,8.83,24.01,6.93
calmatuiu,40,RO,1573346709,93,43.97,24.87,48.2,7.61
nyurba,99,RU,1573346710,94,63.29,118.35,12.63,5.17
grand gaube,20,MU,1573346448,88,-20.01,57.66,70.0,4.7
hirado,20,JP,1573346710,55,33.32,129.49,66.0,4.7
krasnoarmeysk,90,RU,1573346710,100,56.12,38.15,41.0,8.95
sinnamary,34,GF,1573346468,84,5.38,-52.96,81.82,11.61
raichur,13,IN,1573346710,83,16.2,77.36,72.57,6.82
nova olimpia,67,BR,1573346710,81,-14.8,-57.29,73.85,2.06
taoudenni,25,ML,1573346711,21,22.68,-3.98,68.88,8.9
miri,100,NG,1573346711,42,10.31,9.75,77.79,3.65
puri,0,ID,1573346711,67,-7.54,112.45,82.15,0.94
garca,90,BR,1573346711,78,-22.21,-49.66,78.8,4.7
alice springs,0,AU,1573346711,14,-23.7,133.88,75.2,13.87
parana,92,BR,1573346711,66,-7.52,-72.89,80.98,1.39
aklavik,20,CA,1573346477,65,68.22,-135.01,6.8,9.17
ambilobe,49,MG,1573346711,76,-13.19,49.05,75.99,8.68
brae,11,GB,1573346435,63,60.4,-1.35,42.8,10.29
general pico,8,AR,1573346712,65,-35.66,-63.75,68.0,4.81
ponta delgada,20,PT,1573346712,87,37.73,-25.67,60.8,5.82
rivne,80,UA,1573346712,10,50.62,26.25,51.01,7.25
castillo,100,PH,1573346712,98,16.36,120.91,65.08,2.24
bara,100,NG,1573346712,43,10.41,10.6,79.05,3.71
hisua,83,IN,1573346712,84,24.84,85.42,71.35,2.59
corn island,100,NI,1573346712,80,12.17,-83.04,82.65,14.03
egvekinot,0,RU,1573346451,83,66.32,-179.17,15.37,3.22
shingu,20,JP,1573346713,62,33.72,135.99,59.0,5.82
sao felix do xingu,100,BR,1573346713,84,-6.64,-51.99,76.01,1.92
toktogul,29,KG,1573346713,68,41.87,72.95,28.99,3.87
preobrazheniye,7,RU,1573346713,40,42.9,133.91,36.07,4.18
yumen,0,CN,1573346713,38,40.29,97.04,30.15,10.65
tinqueux,20,FR,1573346714,91,49.25,3.99,39.99,6.93
nemuro,20,JP,1573346714,55,43.32,145.57,39.2,6.93
millbrook,1,US,1573346714,93,32.48,-86.36,50.0,0.98
swan river,100,CA,1573346714,80,52.11,-101.27,12.99,9.69
bud,0,NO,1573346714,68,62.91,6.91,28.4,9.17
iwanai,51,JP,1573346714,60,42.97,140.51,37.49,11.32
north bend,1,US,1573346714,76,43.41,-124.22,54.0,2.77
vysokogornyy,15,RU,1573346714,77,50.1,139.13,11.08,2.48
bayonet point,1,US,1573346607,72,28.33,-82.68,71.6,6.93
novo aripuana,43,BR,1573346715,81,-5.12,-60.38,78.03,3.13
iisalmi,90,FI,1573346715,100,63.56,27.19,33.8,4.7
lazaro cardenas,40,MX,1573346715,63,28.39,-105.62,66.2,8.05
monterey,40,US,1573346715,77,36.6,-121.89,73.4,4.7
santiago de chuco,84,PE,1573346715,90,-8.15,-78.17,48.2,5.32
gainesville,75,US,1573346507,87,29.65,-82.33,60.01,5.82
huron,90,US,1573346480,80,44.36,-98.21,46.4,8.05
baihar,2,IN,1573346716,95,22.11,80.55,63.93,2.71
vestmannaeyjar,87,IS,1573346650,82,63.44,-20.27,44.42,16.6
half moon bay,20,US,1573346716,71,37.46,-122.43,72.0,18.34
riyadh,59,SA,1573346440,46,24.63,46.72,69.8,2.24
tenenkou,66,ML,1573346716,25,14.46,-4.91,90.73,6.06
gboko,85,NG,1573346716,59,7.32,9.0,81.12,4.07
vila franca do campo,20,PT,1573346716,87,37.72,-25.43,60.8,5.82
pangkalanbuun,60,ID,1573346716,75,-2.68,111.62,81.0,1.19
vakhrushev,9,RU,1573346717,62,48.99,142.86,26.15,8.19
mandapam,29,IN,1573346717,79,9.28,79.12,81.54,9.08
perehonivka,40,UA,1573346717,100,49.98,30.49,54.0,6.71
bambanglipuro,31,ID,1573346717,73,-7.95,110.28,79.72,3.36
campoverde,75,EC,1573346717,87,-0.91,-78.62,51.8,6.93
okhotsk,23,RU,1573346717,72,59.36,143.24,8.04,18.72
yeppoon,0,AU,1573346717,7,-23.13,150.74,84.2,6.93
sorland,0,NO,1573346717,64,67.67,12.69,32.97,16.62
ialibu,100,PG,1573346718,64,-6.28,143.99,71.58,4.18
araouane,92,ML,1573346718,18,18.9,-3.53,81.03,9.73
kupang,20,ID,1573346718,49,-10.16,123.6,89.6,2.24
mogapi,98,BW,1573346718,75,-22.32,27.84,68.2,19.6
sur,65,OM,1573346718,59,22.57,59.53,70.41,3.13
milkovo,100,BG,1573346718,100,41.53,24.68,61.0,3.36
coihaique,90,CL,1573346482,58,-45.58,-72.07,59.0,3.36
ilembula,42,TZ,1573346719,85,-8.9,34.58,62.6,9.57
zhezkazgan,95,KZ,1573346719,78,47.8,67.71,41.77,16.11
gat,39,SN,1573346471,78,14.69,-16.54,73.4,14.99
itapetinga,9,BR,1573346719,93,-15.25,-40.25,67.21,1.97
saint george,48,GR,1573346625,100,39.45,22.34,51.8,4.7
colquiri,99,BO,1573346719,79,-17.42,-67.13,43.2,11.9
redcar,20,GB,1573346720,86,54.62,-1.06,44.01,6.93
lasa,0,CY,1573346720,52,34.92,32.53,66.2,8.05
sola,50,TZ,1573346720,69,-3.17,33.8,69.42,5.37
pokhara,5,NP,1573346720,67,28.21,83.99,58.75,3.74
sobolevo,100,RU,1573346720,97,54.43,31.9,49.48,9.78
tazmalt,40,DZ,1573346720,71,36.39,4.4,50.0,4.7
agboville,1,CI,1573346720,98,5.93,-4.21,73.36,2.46
imeni poliny osipenko,0,RU,1573346721,51,52.42,136.49,16.45,9.82
dolores,27,UY,1573346721,75,-33.53,-58.22,71.01,14.0
bilma,0,NE,1573346721,14,18.69,12.92,73.9,6.06
berlevag,100,NO,1573346658,78,70.86,29.09,17.6,6.93
chapais,90,CA,1573346620,85,49.78,-74.86,19.4,8.05
tuatapere,100,NZ,1573346721,94,-46.13,167.69,50.0,4.0
el alto,75,BO,1573346721,61,-16.5,-68.19,48.2,10.29
yarmouth,75,CA,1573346722,59,43.84,-66.12,37.99,6.93
weymouth,1,US,1573346722,63,42.22,-70.94,36.0,4.07
marzuq,0,YE,1573346722,60,14.4,46.47,64.49,3.38
buraydah,75,SA,1573346643,73,26.33,43.97,71.6,14.99
yulara,0,AU,1573346431,14,-25.24,130.99,77.0,14.99
nome,1,US,1573346722,58,30.04,-94.42,59.0,2.8
aksarka,82,RU,1573346723,99,66.56,67.8,-5.03,0.87
te anau,97,NZ,1573346723,87,-45.41,167.72,45.9,3.65
tall kayf,41,TR,1573346723,53,37.08,41.07,50.0,11.41
kraskino,89,RU,1573346723,71,42.71,130.78,42.4,6.51
kahului,20,US,1573346713,43,20.89,-156.47,87.8,8.05
chany,0,RU,1573346723,59,55.31,76.76,14.7,7.83
montrose,20,GB,1573346723,80,56.71,-2.47,37.0,10.29
raudeberg,0,NO,1573346723,58,61.99,5.14,34.0,8.05
grand baie,20,MU,1573346724,88,-20.02,57.58,70.0,4.7
havelock,1,US,1573346724,81,34.88,-76.9,50.0,4.7
funes,46,AR,1573346724,64,-32.92,-60.81,75.99,9.17
goure,2,NE,1573346724,16,13.98,10.27,82.99,3.0
kamogawa,20,JP,1573346724,58,35.13,140.08,62.01,12.75
moron,2,HT,1573346724,79,18.56,-74.26,80.42,4.5
ola,100,RU,1573346725,82,59.58,151.3,17.65,15.39
estelle,90,FR,1573346725,93,43.97,3.47,44.6,4.7
kuppam,67,IN,1573346725,91,12.75,78.34,70.72,3.58
whitehorse,40,CA,1573346500,66,60.72,-135.06,12.2,2.24
huadian,100,CN,1573346725,61,42.97,126.75,36.55,5.17
bardsir,8,IR,1573346725,59,29.93,56.57,33.8,4.7
bad doberan,75,DE,1573346726,93,54.11,11.9,43.0,5.82
olga,1,US,1573346475,8,34.11,-118.17,87.8,4.7
kaeo,72,NZ,1573346726,100,-35.1,173.78,72.0,5.99
santa cruz,100,BR,1573346726,79,-6.22,-36.02,73.08,8.19
kargasok,75,RU,1573346726,88,59.06,80.87,8.55,7.96
raymondville,1,US,1573346726,54,37.34,-91.83,55.99,5.82
wakkanai,40,JP,1573346726,44,45.41,141.67,39.2,21.92
saint anthony,1,US,1573346726,42,43.97,-111.68,51.8,4.0
sakiai,100,LT,1573346727,93,54.95,23.04,50.0,6.93
pervouralsk,8,RU,1573346727,92,56.9,59.94,10.4,4.32
fomboni,97,KM,1573346727,82,-12.28,43.74,80.17,15.37
namibe,0,AO,1573346443,74,-15.19,12.15,77.05,7.76
balabac,8,PH,1573346727,78,7.99,117.06,81.55,13.65
nouadhibou,91,MR,1573346727,64,20.93,-17.03,68.0,20.8
atasu,100,KZ,1573346728,92,48.68,71.64,35.58,6.69
eureka,90,US,1573346583,93,40.8,-124.16,57.99,4.7
kavieng,100,PG,1573346728,90,-2.57,150.8,77.52,5.73
coronel vivida,49,BR,1573346728,92,-25.98,-52.57,66.83,4.63
berea,75,US,1573346637,52,37.57,-84.3,44.6,5.82
maragogi,96,BR,1573346630,79,-9.01,-35.22,79.23,14.41
dongsheng,90,CN,1573346728,63,29.72,112.52,61.29,5.41
tiksi,97,RU,1573346661,97,71.64,128.87,-13.73,5.12
turkmenabat,0,TM,1573346729,39,39.09,63.58,32.0,6.93
carnot,59,CF,1573346729,74,4.94,15.87,71.74,2.95
pascagoula,1,US,1573346463,87,30.37,-88.56,57.2,3.53
rawson,15,AR,1573346729,80,-43.3,-65.11,50.7,20.8
yenagoa,99,NG,1573346730,90,4.92,6.26,77.7,3.0
coihueco,85,CL,1573346730,43,-36.63,-71.83,71.6,6.93
peruibe,98,BR,1573346730,88,-24.32,-47.0,74.59,16.44
encruzilhada do sul,72,BR,1573346730,97,-30.54,-52.52,65.21,9.26
galesong,20,ID,1573346730,79,-5.32,119.37,84.2,3.36
hokitika,100,NZ,1573346730,96,-42.72,170.96,56.79,13.65
wyndham,96,GB,1573346730,93,51.61,-3.54,43.0,9.17
myaundzha,100,RU,1573346730,85,63.05,147.18,6.57,7.2
davila,75,PH,1573346731,83,18.47,120.58,77.0,2.24
makurdi,100,NG,1573346731,69,7.73,8.54,79.09,5.01
curup,17,ID,1573346731,91,-3.47,102.53,68.92,1.41
neiafu,40,TO,1573346731,78,-18.65,-173.98,80.6,12.75
cibitoke,99,BI,1573346731,77,-2.89,29.12,62.65,1.59
pirgos,20,GR,1573346731,93,35.12,25.72,71.01,5.82
atikokan,100,CA,1573346443,86,48.76,-91.62,23.49,8.19
komsomolskiy,39,RU,1573346732,100,67.55,63.78,-5.53,2.84
mutis,100,CO,1573346732,80,6.23,-77.4,77.38,7.94
moratuwa,5,LK,1573346732,94,6.77,79.88,75.2,2.24
los llanos de aridane,75,ES,1573346732,73,28.66,-17.92,69.8,14.99
el aguila,75,MX,1573346732,48,19.17,-99.41,77.0,5.82
sao joao da barra,84,BR,1573346732,89,-21.64,-41.05,75.69,5.99
aktau,2,KZ,1573346733,80,43.65,51.16,35.6,8.95
brewster,40,US,1573346468,64,41.76,-70.08,39.99,4.7
timra,90,SE,1573346733,73,62.49,17.33,23.0,12.75
ilovlya,75,RU,1573346733,86,49.31,43.98,39.2,15.66
hakui,20,JP,1573346733,81,36.89,136.78,57.99,2.24
williston,90,US,1573346733,92,48.15,-103.62,28.4,12.75
weihai,100,CN,1573346733,69,37.5,122.11,62.01,23.31
ayagoz,100,KZ,1573346733,81,47.96,80.43,32.99,6.38
morant bay,40,JM,1573346734,70,17.88,-76.41,84.2,5.82
tungor,100,RU,1573346734,76,53.39,142.95,26.42,21.54
praia da vitoria,20,PT,1573346633,87,38.73,-27.07,60.8,6.2
clyde river,90,CA,1573346734,85,70.47,-68.59,17.6,26.4
umuarama,27,BR,1573346734,78,-23.76,-53.31,72.01,4.97
ixtapa,40,MX,1573346464,79,20.71,-105.21,86.0,5.82
mackenzie,90,CA,1573346734,61,55.34,-123.09,12.2,6.93
buala,76,SB,1573346647,71,-8.15,159.59,84.18,5.53
japura,51,ID,1573346735,93,-0.42,102.29,76.15,1.19
severo-yeniseyskiy,100,RU,1573346735,95,60.37,93.04,-10.76,7.27
marshall,1,US,1573346735,57,39.12,-93.2,55.0,6.93
jiangyou,75,CN,1573346735,89,31.78,104.73,47.14,1.54
panaba,18,MX,1573346735,80,21.28,-88.27,78.22,12.55
pagudpud,75,PH,1573346735,83,18.56,120.79,77.0,2.24
san patricio,100,PY,1573346450,91,-26.98,-56.83,75.15,3.91
bandarbeyla,0,SO,1573346659,73,9.49,50.81,79.02,14.85
san jose,90,HN,1573346449,87,14.25,-87.96,71.6,10.29
garowe,0,SO,1573346736,64,8.41,48.48,71.91,9.51
canelli,40,IT,1573346736,81,44.72,8.29,52.0,6.93
macamic,90,CA,1573346736,86,48.75,-79.0,28.4,9.17
carolina,75,PR,1573346736,78,18.38,-65.96,82.4,6.93
doha,75,QA,1573346736,83,25.29,51.53,80.6,3.36
turayf,0,SA,1573346737,43,31.68,38.65,55.4,9.17
lieksa,100,FI,1573346737,99,63.32,30.02,33.89,4.5
bull savanna,58,JM,1573346737,93,17.89,-77.59,72.05,2.13
nioro,2,GM,1573346737,20,13.79,-15.05,83.89,9.51
iquique,90,CL,1573346737,72,-20.22,-70.14,64.4,4.7
ayan,0,IR,1573346737,27,38.23,44.7,31.06,1.7
kibala,61,TD,1573346737,37,9.11,18.35,75.97,1.66
the valley,20,AI,1573346738,83,18.22,-63.06,82.4,9.17
mayumba,98,GA,1573346738,78,-3.44,10.65,80.47,5.59
harper,1,US,1573346738,72,30.3,-99.24,64.4,6.93
guymon,1,US,1573346738,18,36.68,-101.48,64.4,9.17
san carlos del zulia,94,VE,1573346738,81,9.0,-71.91,79.93,3.89
honningsvag,0,NO,1573346502,68,70.98,25.97,29.73,11.1
shimoga,0,IN,1573346739,80,13.92,75.57,65.35,1.25
mankachar,100,IN,1573346739,89,25.53,89.87,69.91,5.44
andros,97,GR,1573346739,82,37.83,24.93,64.99,6.93
mana,0,NG,1573346739,23,13.03,5.27,79.99,5.5
strezhevoy,100,RU,1573346739,84,60.73,77.6,1.4,4.47
kodinsk,100,RU,1573346739,87,58.6,99.18,1.9,10.78
ucluelet,90,CA,1573346472,100,48.94,-125.55,53.01,5.82
palauig,93,PH,1573346739,74,15.44,119.9,77.72,1.52
batticaloa,97,LK,1573346740,92,7.71,81.69,73.27,2.57
honiara,75,SB,1573346740,70,-9.43,159.96,87.8,6.93
andra,57,RU,1573346740,94,62.52,65.89,3.15,3.13
kavaratti,28,IN,1573346618,69,10.57,72.64,81.25,6.76
alihe,100,CN,1573346740,88,50.57,123.73,22.1,2.1
isnos,100,CO,1573346740,89,1.94,-76.24,61.03,2.1
